City_ID,City,Lat,Lng,Max Temp,Humidity,Cloudiness,Wind Speed,Country,Date
0,port-aux-francais,-49.35,70.2167,1.57,69,100,14.86,TF,1717419628
1,the dalles,45.5946,-121.1787,15.48,94,93,4.47,US,1717419629
2,kruisfontein,-34.0033,24.7314,16.05,76,77,4.17,ZA,1717419630
3,sinabang,2.4803,96.3801,28.19,80,100,1.7,ID,1717419631
4,n'zeto,-7.2312,12.8666,26.24,70,64,5.63,AO,1717419632
5,aktyubinskiy,54.8137,52.8056,24.92,54,30,3.14,RU,1717419633
6,hermanus,-34.4187,19.2345,14.89,69,96,4.99,ZA,1717419634
7,punta arenas,-53.15,-70.9167,2.01,86,100,3.09,CL,1717419114
8,utrik,11.2278,169.8474,28.17,80,100,9.46,MH,1717419636
9,shanhecun,44.7,127.2,16.52,74,100,1.05,CN,1717419636
10,yuzhno-kurilsk,44.0306,145.8556,6.88,97,100,2.89,RU,1717419638
11,puerto ayora,-0.7393,-90.3518,22.53,96,26,2.15,EC,1717419638
12,adamstown,-25.066,-130.1015,21.24,78,100,0.59,PN,1717419639
13,arteche,12.2645,125.4048,26.62,87,19,1.7,PH,1717419641
14,iqaluit,63.7506,-68.5145,-0.15,93,100,6.71,CA,1717419642
15,devonport,-41.1667,146.35,11.96,91,66,3.11,AU,1717419643
16,atafu village,-8.5421,-172.5159,28.65,76,77,6.12,TK,1717419643
17,ushuaia,-54.8,-68.3,3.79,65,0,2.57,AR,1717419358
18,yellowknife,62.456,-114.3525,8.01,89,75,5.66,CA,1717419645
19,papatowai,-46.5619,169.4708,6.47,89,4,2.81,NZ,1717419645
20,tieli,46.95,128.05,12.87,97,100,2.29,CN,1717419646
21,ad dilam,23.9915,47.1627,44.23,6,0,5.91,SA,1717419647
22,guerrero negro,27.9769,-114.0611,16.07,77,100,7.71,MX,1717419647
23,manay,7.215,126.5397,26.08,89,100,1.64,PH,1717419648
24,invercargill,-46.4,168.35,3.34,92,73,1.34,NZ,1717419649
25,albany,42.6001,-73.9662,22.54,68,85,2.49,US,1717419467
26,wailua homesteads,22.0669,-159.378,23.19,81,8,1.34,US,1717419650
27,ilulissat,69.2167,-51.1,0.01,74,0,2.57,GL,1717419650
28,waitangi,-43.9535,-176.5597,7.68,91,20,5.81,NZ,1717419651
29,lata,40.1629,-8.3327,29.16,39,0,4.57,PT,1717419652
30,dudinka,69.4058,86.1778,-1.29,88,25,0.89,RU,1717419652
31,launceston,-41.45,147.1667,11.2,100,40,4.12,AU,1717419653
32,faya-largeau,17.9257,19.1043,44.94,7,0,6.17,TD,1717419654
33,north battleford,52.7834,-108.2847,9.67,81,0,5.66,CA,1717419654
34,newport,51.5877,-2.9984,20.94,81,100,0.71,GB,1717419654
35,klaksvik,62.2266,-6.589,7.51,70,9,12.38,FO,1717419655
36,zhaoyuan,37.3592,120.3964,19.39,50,0,1.98,CN,1717419655
37,chegdomyn,51.1167,133.0167,8.87,47,99,1.9,RU,1717419656
38,bethel,41.3712,-73.414,24.87,69,26,0.45,US,1717419656
39,edinburgh of the seven seas,-37.0676,-12.3116,12.12,61,65,4.5,SH,1717419657
40,vilyuysk,63.7553,121.6247,17.22,82,7,2.24,RU,1717419657
41,touros,-5.1989,-35.4608,28.8,70,94,5.32,BR,1717419658
42,margaret river,-33.95,115.0667,15.95,77,34,3.1,AU,1717419658
43,dzilam gonzalez,21.2833,-88.9333,27.38,77,80,2.16,MX,1717419658
44,whitehorse,60.7161,-135.0538,9.43,68,75,6.17,CA,1717419601
45,mount pearl,47.5166,-52.7813,10.25,98,100,5.66,CA,1717419659
46,grootfontein,-19.5667,18.1167,18.76,13,0,0.51,NA,1717419660
47,blackmans bay,-43.0167,147.3167,11.96,95,24,1.4,AU,1717419660
48,tiksi,71.6872,128.8694,4.09,89,56,2.3,RU,1717419661
49,port mathurin,-19.6833,63.4167,26.05,69,20,6.69,MU,1717419661
50,aleg,17.0481,-13.9209,38.19,14,3,4.4,MR,1717419662
51,vredendal,-31.6683,18.5012,13.08,71,100,9.25,ZA,1717419662
52,chonchi,-42.6128,-73.8092,3.95,82,100,1.45,CL,1717419662
53,laguna,38.421,-121.4238,19.07,79,0,3.09,US,1717419663
54,stanley,54.868,-1.6985,18.73,73,20,7.2,GB,1717419663
55,arhribs,36.7936,4.3116,27.3,33,4,4.88,DZ,1717419664
56,broome,42.2506,-75.833,19.74,86,95,0.89,US,1717419635
57,grytviken,-54.2811,-36.5092,-1.2,85,29,2.8,GS,1717419665
58,xilin hot,43.9667,116.0333,20.01,19,0,2.53,CN,1717419666
59,hamilton,39.1834,-84.5333,20.59,96,100,1.54,US,1717419607
60,novoishimskiy,53.1981,66.7694,24.24,47,0,7.98,KZ,1717419666
61,badger,64.8,-147.5333,12.82,86,40,1.54,US,1717419667
62,jamestown,42.097,-79.2353,19.29,96,100,2.57,US,1717419396
63,longgang,37.6508,120.3286,19.15,66,0,2.74,CN,1717419668
64,san buenaventura,27.0833,-101.5333,30.59,68,87,2.7,MX,1717419668
65,vadso,70.0744,29.7487,13.49,94,75,4.12,NO,1717419669
66,west island,-12.1568,96.8225,27.99,83,28,5.66,CC,1717419669
67,geraldton,-28.7667,114.6,16.23,88,40,2.57,AU,1717419670
68,mogadishu,2.0371,45.3438,30.93,74,40,8.23,SO,1717419670
69,saipan,15.1355,145.701,28.19,79,78,4.19,MP,1717419670
70,fort st. john,56.2499,-120.8529,9.94,71,75,3.6,CA,1717419447
71,muleshoe,34.2265,-102.7238,14.8,19,0,3.42,US,1717419672
72,kudymkar,59.0173,54.656,26.18,44,9,1.04,RU,1717419673
73,fuglafjordur,62.244,-6.814,7.26,69,10,11.6,FO,1717419673
74,puerto armuelles,8.2833,-82.8667,25.99,89,100,2.24,PA,1717419674
75,labrador city,52.9463,-66.9114,20.1,52,40,1.03,CA,1717419523
76,qaqortoq,60.7167,-46.0333,6.52,71,100,2.14,GL,1717419675
77,labytnangi,66.6572,66.4183,3.54,68,67,1.54,RU,1717419676
78,constantia,44.1833,28.65,31.5,65,8,5.82,RO,1717419677
79,ust-nera,64.5667,143.2,12.53,46,35,2.24,RU,1717419677
80,trujillo,-8.116,-79.03,15.98,94,100,3.09,PE,1717419599
81,okhotsk,59.3833,143.3,2.13,99,100,3.44,RU,1717419678
82,geneva,41.8875,-88.3054,20.94,81,11,1.34,US,1717419661
83,charlotte amalie,18.3419,-64.9307,29.82,79,99,8.52,VI,1717419680
84,belyy yar,53.6039,91.3903,14.94,58,0,3.0,RU,1717419681
85,pokaran,26.9167,71.9167,41.17,15,0,5.27,IN,1717419682
86,coquimbo,-29.9533,-71.3436,11.85,100,100,2.06,CL,1717419433
87,puerto natales,-51.7236,-72.4875,-2.75,93,0,3.09,CL,1717419675
88,al kharijah,25.4514,30.5464,40.97,7,0,5.92,EG,1717419684
89,urengoy,65.9667,78.3667,1.05,92,100,5.85,RU,1717419685
90,aur,8.1499,171.1687,28.3,82,98,8.44,MH,1717419685
91,cabo san lucas,22.8909,-109.9124,22.09,63,0,5.3,MX,1717419597
92,natitingou,10.3042,1.3796,36.22,39,55,1.05,BJ,1717419687
93,hilo,19.7297,-155.09,21.85,97,100,3.09,US,1717419688
94,ancud,-41.8697,-73.8203,5.31,79,100,4.25,CL,1717419688
95,aykhal,66.0,111.5,14.27,35,100,2.57,RU,1717419617
96,inhambane,-23.865,35.3833,27.99,69,40,7.2,MZ,1717419689
97,port elizabeth,-33.918,25.5701,17.28,83,20,7.2,ZA,1717419691
98,nantucket,41.2835,-70.0995,22.27,88,40,4.12,US,1717419461
99,bilibino,68.0546,166.4372,5.85,55,0,1.26,RU,1717419694
100,caleta de carquin,-11.0925,-77.6267,18.08,85,55,2.77,PE,1717419694
101,aasiaat,68.7098,-52.8699,-1.21,74,12,5.53,GL,1717419695
102,kidal,18.4411,1.4078,42.49,9,0,2.64,ML,1717419696
103,pacific grove,36.6177,-121.9166,14.06,92,75,2.57,US,1717419609
104,gamboula,4.1178,15.1393,29.56,59,64,1.87,CF,1717419697
105,thompson,55.7435,-97.8558,8.09,93,100,3.6,CA,1717419698
106,nsanje,-16.92,35.262,35.69,20,0,1.59,MW,1717419698
107,susuman,62.7833,148.1667,12.77,40,6,3.13,RU,1717419699
108,la passe,45.5549,-0.8967,22.13,62,3,3.97,FR,1717419699
109,qui nhon,13.7667,109.2333,28.75,86,99,0.24,VN,1717419700
110,munchenbuchsee,47.0218,7.4504,17.75,79,75,2.57,CH,1717419701
111,hithadhoo,-0.6,73.0833,28.96,69,100,3.34,MV,1717419701
112,piuma,-20.8378,-40.7219,24.54,66,1,1.25,BR,1717419605
113,viedma,-40.8135,-62.9967,6.21,77,83,3.2,AR,1717419703
114,tolanaro,-25.0319,46.9987,25.04,73,40,5.14,MG,1717419703
115,anadyr,64.75,177.4833,-0.72,92,0,3.0,RU,1717419704
116,gadzhiyevo,69.2551,33.3362,15.02,72,100,4.22,RU,1717419704
117,toliara,-23.35,43.6667,27.16,51,0,5.93,MG,1717419705
118,thames,-37.1333,175.5333,10.36,95,100,1.42,NZ,1717419706
119,buala,-8.145,159.5921,26.73,84,12,1.65,SB,1717419706
120,piti village,13.4626,144.6933,27.95,85,93,3.09,GU,1717419707
121,belel,7.05,14.4333,30.55,30,100,3.57,CM,1717419708
122,holualoa,19.6228,-155.9522,21.42,84,11,2.0,US,1717419709
123,tadine,-21.55,167.8833,23.13,85,100,4.67,NC,1717419710
124,pinheiro,-2.5214,-45.0825,27.64,89,23,2.03,BR,1717419710
125,petropavlovsk-kamchatsky,53.0452,158.6483,11.33,75,0,2.0,RU,1717419711
126,brigantine,39.4101,-74.3646,23.11,90,100,2.57,US,1717419711
127,san patricio,28.017,-97.5169,29.97,84,100,7.87,US,1717419712
128,bardai,11.65,7.2333,35.65,33,58,2.57,NG,1717419712
129,nar'yan-mar,67.6713,53.087,3.39,78,100,1.79,RU,1717419712
130,kristiansund,63.1115,7.732,14.03,64,75,8.23,NO,1717419713
131,buka,40.8108,69.1986,27.68,33,31,3.72,UZ,1717419713
132,tazovsky,67.4667,78.7,0.43,92,100,5.66,RU,1717419715
133,port lincoln,-34.7333,135.8667,14.64,57,100,7.21,AU,1717419715
134,luebo,-5.35,21.4167,35.94,31,87,1.2,CD,1717419716
135,alesund,62.4723,6.1549,13.51,76,75,9.77,NO,1717419523
136,polyarnyy,69.1989,33.4478,13.43,78,100,4.48,RU,1717419717
137,puerto leguizamo,-0.1934,-74.7819,25.81,71,100,1.03,CO,1717419616
138,tucupita,9.0622,-62.051,29.87,64,83,3.51,VE,1717419631
139,alaghsas,17.0187,8.0168,42.94,14,70,3.6,NE,1717419719
140,amga,60.8953,131.9608,12.42,67,70,4.0,RU,1717419719
141,igarka,67.4667,86.5833,0.57,82,99,1.79,RU,1717419720
142,homer,59.6425,-151.5483,8.91,79,100,1.66,US,1717419721
143,metlili chaamba,32.2667,3.6333,32.52,25,63,9.77,DZ,1717419721
144,birao,10.2849,22.7882,41.77,13,98,2.08,CF,1717419722
145,hawaiian paradise park,19.5933,-154.9731,21.73,96,100,3.09,US,1717419723
146,soufriere,13.8562,-61.0566,29.94,88,40,7.72,LC,1717419723
147,hiratacho,35.4333,132.8167,18.01,82,100,5.14,JP,1717419724
148,afaahiti,-17.75,-149.2833,23.93,75,100,3.68,PF,1717419725
149,port alfred,-33.5906,26.891,16.21,91,100,1.34,ZA,1717419726
150,katsuura,35.1333,140.3,18.41,86,98,6.68,JP,1717419727
151,mount gambier,-37.8333,140.7667,6.3,91,100,1.69,AU,1717419727
152,alice springs,-23.7,133.8833,11.75,100,100,4.63,AU,1717419728
153,georgetown,5.4112,100.3354,29.97,71,20,1.54,MY,1717419729
154,baley,51.6,116.6333,16.44,43,24,2.75,RU,1717419730
155,talnakh,69.4865,88.3972,-1.55,87,9,0.92,RU,1717419730
156,nouadhibou,20.931,-17.0347,24.99,61,2,7.2,MR,1717419731
157,kavieng,-2.5744,150.7967,28.7,76,12,5.0,PG,1717419732
158,sao geraldo do araguaia,-6.4006,-48.555,29.23,59,100,4.12,BR,1717419732
159,walvis bay,-22.9575,14.5053,20.53,34,0,0.0,NA,1717419733
160,fortuna,40.5982,-124.1573,16.07,97,100,0.0,US,1717419734
161,avarua,-21.2078,-159.775,21.03,68,89,2.57,CK,1717419735
162,kodiak,57.79,-152.4072,6.73,93,100,2.06,US,1717419735
163,anori,-3.7728,-61.6442,26.96,84,100,1.59,BR,1717419685
164,manta,-0.95,-80.7333,22.88,88,100,5.14,EC,1717419736
165,newcastle,-32.9272,151.7765,12.27,69,5,8.75,AU,1717419737
166,kazan,55.7887,49.1221,28.34,56,100,3.05,RU,1717419699
167,galle,6.0367,80.217,27.12,88,97,3.86,LK,1717419738
168,oujda-angad,34.6805,-1.9076,24.35,50,75,5.14,MA,1717419739
169,longyearbyen,78.2186,15.6401,6.91,76,75,8.75,SJ,1717419699
170,carutapera,-1.195,-46.02,28.52,77,90,4.81,BR,1717419740
171,ghat,24.9647,10.1728,40.96,9,37,2.67,LY,1717419732
172,porto novo,6.4965,2.6036,31.9,64,100,3.89,BJ,1717419742
173,college,64.8569,-147.8028,12.87,74,70,0.94,US,1717419743
174,kingston,17.997,-76.7936,30.09,70,40,2.06,JM,1717419467
175,ribeira grande,38.5167,-28.7,20.43,83,20,3.09,PT,1717419744
176,tamanrasset,22.785,5.5228,35.95,9,20,2.57,DZ,1717419733
177,keflavik,64.0049,-22.5624,6.24,56,75,8.75,IS,1717419745
178,dunedin,-45.8742,170.5036,9.33,60,11,0.45,NZ,1717419682
179,east london,-33.0153,27.9116,16.52,77,20,5.14,ZA,1717419747
180,basco,20.4487,121.9702,27.62,83,100,10.51,PH,1717419747
181,nemuro,43.3236,145.575,7.92,93,100,4.42,JP,1717419748
182,ostrovskoye,57.8057,42.2433,24.28,64,24,3.21,RU,1717419749
183,haiku-pauwela,20.9219,-156.3051,23.36,89,19,3.13,US,1717419749
184,porto velho,-8.7619,-63.9039,29.03,65,0,3.09,BR,1717419348
185,rongelap,11.1635,166.8941,28.18,83,100,8.88,MH,1717419751
186,st. paul,44.9444,-93.0933,19.76,93,75,4.63,US,1717419505
187,puerto baquerizo moreno,-0.9,-89.6,21.34,93,17,3.17,EC,1717419737
188,kalix,65.853,23.1565,14.93,61,48,3.87,SE,1717419753
189,xai-xai,-25.0519,33.6442,30.42,42,5,5.52,MZ,1717419754
190,magog,45.2668,-72.1491,22.91,77,0,0.51,CA,1717419630
191,iskateley,67.6803,53.1512,3.34,78,100,1.79,RU,1717419756
192,zhigalovo,54.8097,105.1578,14.9,64,6,1.68,RU,1717419756
193,quelimane,-17.8786,36.8883,30.97,66,20,3.38,MZ,1717419757
194,newman,37.3138,-121.0208,18.49,83,17,0.89,US,1717419758
195,eastham,41.8301,-69.9739,23.01,68,0,1.54,US,1717419744
196,cromwell,41.5951,-72.6454,24.58,70,100,1.23,US,1717419607
197,colonia,50.9333,6.95,16.92,67,100,2.57,DE,1717419612
198,pandan,14.0453,124.1694,28.0,81,100,2.34,PH,1717419760
199,kerikeri,-35.2268,173.9474,10.23,72,93,1.29,NZ,1717419761
200,fort mcmurray,56.7268,-111.381,7.77,76,100,4.63,CA,1717419629
201,magistral'nyy,56.1725,107.4458,14.09,64,67,1.5,RU,1717419762
202,antsiranana,-12.2787,49.2917,30.42,54,20,7.2,MG,1717419762
203,beloyarskiy,63.7119,66.6722,11.67,31,88,1.79,RU,1717419763
204,buta,2.7858,24.73,35.55,35,92,0.73,CD,1717419764
205,kapuskasing,49.4169,-82.4331,16.0,63,75,1.54,CA,1717419765
206,santa catalina,9.3337,122.8637,30.99,87,76,1.37,PH,1717419766
207,byron bay,-28.65,153.6167,12.33,64,0,5.0,AU,1717419766
208,olonkinbyen,70.9221,-8.7187,-0.25,98,100,10.08,SJ,1717419767
209,beira,-19.8436,34.8389,28.44,60,0,5.69,MZ,1717419767
210,princeville,45.7668,-61.2985,12.17,92,100,3.09,CA,1717419768
211,rio grande,-32.035,-52.0986,10.53,79,62,5.77,BR,1717419769
212,mejit,10.2753,170.8646,27.79,82,100,8.88,MH,1717419769
213,huancavelica,-12.7667,-74.9833,5.17,60,5,1.06,PE,1717419770
214,la sarre,48.8002,-79.1996,16.46,77,100,1.4,CA,1717419770
215,westport,41.1415,-73.3579,25.57,69,0,1.54,US,1717419752
216,tralee,52.2704,-9.7026,16.14,72,100,3.6,IE,1717419771
217,brokopondo,4.75,-55.1667,26.86,82,66,3.92,SR,1717419772
218,bredasdorp,-34.5322,20.0403,15.56,68,90,3.93,ZA,1717419772
219,gunjur,13.2019,-16.7339,30.04,51,20,2.57,GM,1717419773
220,queenstown,-31.8976,26.8753,12.28,34,73,9.53,ZA,1717419773
221,vicuna mackenna,-33.9197,-64.3922,6.05,63,100,2.98,AR,1717419774
222,manggar,-2.8833,108.2667,26.08,84,100,0.87,ID,1717419615
223,luderitz,-26.6481,15.1594,14.94,69,100,6.75,NA,1717419533
224,malhargarh,24.2833,74.9833,39.28,20,8,7.39,IN,1717419776
225,phan rang-thap cham,11.5667,108.9833,28.29,83,100,1.62,VN,1717419776
226,konarka,19.9,86.1167,31.22,73,100,6.16,IN,1717419777
227,pirallahi,40.4723,50.333,31.08,65,0,3.98,AZ,1717419778
228,san luis de la loma,17.2706,-100.8939,27.13,64,8,2.42,MX,1717419778
229,lodwar,3.1191,35.5973,35.62,30,1,2.51,KE,1717419779
230,coari,-4.085,-63.1414,27.19,81,83,1.47,BR,1717419688
231,akhnur,32.8667,74.7333,43.14,7,2,4.83,IN,1717419780
232,flying fish cove,-10.4217,105.6791,26.82,89,100,5.14,CX,1717419780
233,ubari,26.5921,12.7805,42.16,9,62,3.68,LY,1717419781
234,helensburgh,56.0061,-4.7265,18.56,55,5,1.34,GB,1717419781
235,las heras,-46.5419,-68.9359,1.32,68,100,1.53,AR,1717419782
236,stony plain,53.5334,-114.0021,13.06,70,75,4.12,CA,1717419783
237,richards bay,-28.783,32.0377,25.0,68,100,8.48,ZA,1717419636
238,selfoss,63.9331,-20.9971,6.69,58,96,1.79,IS,1717419784
239,nizhneudinsk,54.9076,99.0276,15.95,53,100,2.37,RU,1717419784
240,castro,-24.7911,-50.0119,17.56,66,82,1.65,BR,1717419766
241,kharkhorin,47.1975,102.8238,14.67,60,32,2.93,MN,1717419785
242,martuk,50.7475,56.5056,24.35,49,100,4.97,KZ,1717419786
243,suileng,47.25,127.0833,14.86,93,100,3.89,CN,1717419786
244,dryden,49.7833,-92.7503,13.16,94,100,4.12,CA,1717419772
245,isafjordur,66.0755,-23.124,4.02,60,100,6.17,IS,1717419787
246,taoudenni,22.6783,-3.9836,41.07,10,100,7.86,ML,1717419787
247,port saint john's,-31.6229,29.5448,22.22,82,100,8.51,ZA,1717419788
248,ixtlahuacan de los membrillos,20.35,-103.1833,18.49,49,6,2.4,MX,1717419788
249,timmins,48.4669,-81.3331,15.9,82,75,3.09,CA,1717419728
250,plettenberg bay,-34.0527,23.3716,16.25,73,21,3.05,ZA,1717419790
251,opuwo,-18.0607,13.84,25.85,4,0,4.38,NA,1717419790
252,st. john's,47.5649,-52.7093,10.38,98,100,5.66,CA,1717419605
253,suntar,62.1444,117.6319,14.31,81,44,1.93,RU,1717419792
254,kargasok,59.0556,80.8572,11.09,32,100,0.89,RU,1717419792
255,magnolia,33.2671,-93.2393,19.93,93,100,1.79,US,1717419656
256,rudsar,37.1376,50.288,29.99,51,0,1.86,IR,1717419793
257,yeniseysk,58.4497,92.1703,11.08,75,13,5.81,RU,1717419794
258,broken hill,-31.95,141.4333,8.84,47,100,3.64,AU,1717419754
259,saint-georges,12.0564,-61.7485,29.82,74,75,8.75,GD,1717419795
260,uusikaupunki,60.8004,21.4084,18.54,53,11,3.07,FI,1717419796
261,souillac,-20.5167,57.5167,24.21,60,40,4.63,MU,1717419797
262,kirillov,59.863,38.3813,23.32,55,19,3.68,RU,1717419797
263,san antonio de pale,-1.4014,5.6325,26.18,73,5,5.35,GQ,1717419657
264,tuxpan,19.55,-103.4,21.41,48,9,0.82,MX,1717419798
265,usogorsk,63.4106,48.6872,23.15,45,100,2.37,RU,1717419799
266,arraial do cabo,-22.9661,-42.0278,24.92,73,40,4.63,BR,1717419692
267,northam,51.0333,-4.2167,17.44,85,100,4.03,GB,1717419800
268,at taj,24.2049,23.2857,42.03,9,5,2.92,LY,1717419801
269,concepcion,-36.827,-73.0498,6.89,81,0,1.54,CL,1717419733
270,banganapalle,15.3167,78.2333,31.82,54,100,1.01,IN,1717419802
271,motygino,58.1831,94.7592,13.21,58,81,3.58,RU,1717419803
272,kalevala,65.2,31.1667,18.38,79,9,2.24,RU,1717419803
273,cordoba,-31.4135,-64.1811,9.31,65,0,0.89,AR,1717419636
274,onsala,57.4253,12.029,19.41,78,100,7.15,SE,1717419805
275,chihuahua,28.5,-106.0,21.76,20,94,2.2,MX,1717419308
276,cockburn town,21.4612,-71.1419,27.44,83,98,9.93,TC,1717419803
277,matoury,4.8483,-52.3317,26.98,94,75,0.51,GF,1717419807
278,lompoc,34.6391,-120.4579,13.9,82,100,6.26,US,1717419660
279,tura,25.5198,90.2201,24.08,94,100,1.49,IN,1717419808
280,golfito,8.639,-83.166,24.78,91,95,0.98,CR,1717419808
281,wanganui,-39.9333,175.05,7.68,90,100,2.28,NZ,1717419809
282,cherrapunji,25.3,91.7,16.95,98,100,1.15,IN,1717419809
283,cam ranh,11.9214,109.1591,29.98,62,40,2.06,VN,1717419810
284,arkalyk,50.2486,66.9114,22.92,31,43,3.64,KZ,1717419811
285,bodaybo,57.8506,114.1933,12.94,95,100,4.11,RU,1717419811
286,bu'aale,1.0833,42.5833,35.33,33,87,6.35,SO,1717419812
287,saint-philippe,-21.3585,55.7679,23.77,64,0,5.17,RE,1717419813
288,juegang,32.3174,121.1855,19.25,82,45,2.69,CN,1717419813
289,saudarkrokur,65.7461,-19.6394,2.18,73,90,5.76,IS,1717419814
290,fort bragg,35.139,-79.006,22.12,93,100,4.12,US,1717419815
291,panjab,34.388,67.0233,17.95,15,52,4.58,AF,1717419815
292,usinsk,65.9939,57.5281,7.26,70,39,4.02,RU,1717419610
293,tuy hoa,13.0833,109.3,28.98,74,99,1.73,VN,1717419817
294,marka,1.7159,44.7717,28.05,75,30,7.41,SO,1717419817
295,minas de marcona,-15.2119,-75.1103,12.14,81,5,3.26,PE,1717419818
296,amahai,-3.3333,128.9167,26.0,89,87,2.34,ID,1717419819
297,chernyakhovsk,54.6335,21.8156,21.61,73,40,4.81,RU,1717419591
298,senj,44.9894,14.9058,22.63,69,93,3.04,HR,1717419670
299,olean,42.0776,-78.4297,18.38,100,100,0.0,US,1717419575
300,melekeok village,7.4957,134.6367,27.31,89,75,0.0,PW,1717419821
301,flin flon,54.7682,-101.865,9.91,71,75,2.06,CA,1717419822
302,kerman,30.2832,57.0788,35.92,13,0,7.2,IR,1717419822
303,trairi,-3.2778,-39.2689,28.01,71,55,5.03,BR,1717419554
304,kailua-kona,19.6406,-155.9956,25.98,85,100,2.57,US,1717419824
305,mwingi,-0.9344,38.0601,26.07,60,74,3.76,KE,1717419824
306,hadibu,12.65,54.0333,31.49,65,23,3.49,YE,1717419729
307,mili,6.0815,171.735,28.41,80,100,6.6,MH,1717419826
308,sabha,27.0377,14.4283,41.51,10,99,1.78,LY,1717419826
309,hell-ville,-13.4,48.2667,31.93,74,20,1.03,MG,1717419827
310,pontes e lacerda,-15.2261,-59.3353,27.11,49,100,0.98,BR,1717419828
311,talara,-4.5772,-81.2719,19.42,88,0,6.69,PE,1717419829
312,ayancik,41.9447,34.5861,23.26,69,0,2.93,TR,1717419829
313,lihue,21.9789,-159.3672,23.53,81,8,5.02,US,1717419660
314,san ignacio,17.1561,-89.0714,25.08,88,0,0.0,BZ,1717419831
315,tual,-5.6667,132.75,27.67,82,20,8.79,ID,1717419831
316,saint-francois,46.4154,3.9054,15.38,82,100,4.12,FR,1717419832
317,enewetak,11.3474,162.3373,27.94,84,100,8.6,MH,1717419832
318,sechura,-5.5569,-80.8222,18.82,82,10,5.28,PE,1717419833
319,labuan,5.2767,115.2417,25.2,94,40,1.03,MY,1717419834
320,amursk,50.2261,136.8994,9.99,66,0,2.21,RU,1717419834
321,pitkyaranta,61.5734,31.4792,17.51,78,68,3.07,RU,1717419835
322,suoyarvi,62.0833,32.35,21.12,72,100,1.8,RU,1717419835
323,alenquer,-1.9417,-54.7383,27.57,78,88,2.13,BR,1717419836
324,jwaneng,-24.6004,24.7303,13.59,23,0,8.04,BW,1717419837
325,hami,42.8,93.45,28.63,18,5,3.23,CN,1717419838
326,lebu,-37.6167,-73.65,10.19,66,100,4.11,CL,1717419838
327,uturoa,-16.7333,-151.4333,26.75,73,100,6.19,PF,1717419839
328,kayes,14.0,-11.0,39.67,13,5,3.78,ML,1717419840
329,yazoo city,32.8551,-90.4056,24.39,87,100,3.47,US,1717419841
330,remire-montjoly,4.9167,-52.2667,27.02,94,75,0.51,GF,1717419842
331,bozoum,6.3193,16.3799,35.81,30,100,1.63,CF,1717419842
332,capayan,-28.761,-66.0502,12.11,42,87,0.6,AR,1717419843
333,iwanai,42.9744,140.5089,9.52,96,97,2.17,JP,1717419843
334,kapa'a,22.0752,-159.319,24.18,84,100,6.17,US,1717419844
335,karratha,-20.7377,116.8463,22.81,39,0,0.86,AU,1717419845
336,waslala,13.2333,-85.3833,25.11,90,11,0.96,NI,1717419845
337,greenville,35.6127,-77.3663,23.41,85,100,4.12,US,1717419559
338,puerto lempira,15.2667,-83.7667,29.08,70,40,0.0,HN,1717419847
339,chehalis,46.662,-122.964,10.8,91,100,3.6,US,1717419847
340,plastun,44.7561,136.2939,6.16,90,98,0.75,RU,1717419848
341,jiagedaqi,50.4167,124.1167,8.51,84,0,0.81,CN,1717419848
342,bel ombre,-4.6167,55.4167,28.91,79,40,5.14,SC,1717419849
343,purcell,35.0137,-97.3611,21.16,90,6,6.54,US,1717419802
344,kaladhungi,29.2833,79.35,37.86,11,0,1.48,IN,1717419850
345,mudgee,-32.5943,149.5871,4.79,86,0,1.65,AU,1717419851
346,gbadolite,4.2833,21.0167,33.3,47,92,1.29,CD,1717419852
347,kirakira,-10.4544,161.9205,26.22,88,15,3.48,SB,1717419852
348,bodo,67.28,14.405,12.65,66,40,6.17,NO,1717419853
349,kone,-21.0595,164.8658,22.27,95,19,2.73,NC,1717419854
350,dunay,42.8803,132.3375,12.07,96,37,7.2,RU,1717419854
351,nova vicosa,-17.8919,-39.3719,24.8,80,98,1.5,BR,1717419855
352,port hedland,-20.3167,118.5667,20.03,45,0,4.12,AU,1717419856
353,merrill,45.1805,-89.6835,16.99,94,100,2.57,US,1717419601
354,namie,37.4833,141.0,16.51,92,95,5.9,JP,1717419858
355,hasaki,35.7333,140.8333,18.22,79,86,7.58,JP,1717419859
356,callao,-12.0667,-77.15,17.07,82,100,2.57,PE,1717419592
357,kill devil hills,36.0307,-75.676,25.0,76,100,4.63,US,1717419860
358,la ronge,55.1001,-105.2842,7.14,87,20,3.09,CA,1717419861
359,fallon,39.4735,-118.7774,20.51,51,0,2.57,US,1717419862
360,sierra grande,-41.606,-65.3557,1.95,65,79,5.52,AR,1717419862
361,chiplun,17.5333,73.5167,32.68,60,100,3.75,IN,1717419863
362,pechora,65.1472,57.2244,11.03,59,11,2.68,RU,1717419864
363,tezu,27.9167,96.1667,23.03,93,100,1.24,IN,1717419865
364,lockwood,45.8191,-108.4149,15.7,76,100,4.12,US,1717419865
365,lerwick,60.1545,-1.1494,12.0,69,8,10.47,GB,1717419866
366,kenai,60.5544,-151.2583,10.08,76,100,3.09,US,1717419866
367,bikenibeu village,1.3673,173.1241,28.98,84,20,2.57,KI,1717419867
368,cameta,-2.2444,-49.4958,27.46,81,89,2.6,BR,1717419653
369,la'ie,21.6477,-157.9253,23.89,90,11,1.79,US,1717419868
370,korba,22.35,82.6833,34.96,30,98,1.63,IN,1717419869
371,gadani,25.1185,66.7299,32.12,80,0,7.05,PK,1717419869
372,nikolayevsk-on-amure,53.1406,140.73,1.79,92,99,1.79,RU,1717419870
373,ammon,43.4696,-111.9666,15.03,74,100,8.75,US,1717419706
374,el alto,-4.2714,-81.2147,17.81,80,4,5.47,PE,1717419871
375,nacozari de garcia,30.3742,-109.6908,17.65,38,0,1.9,MX,1717419871
376,comodoro rivadavia,-45.8667,-67.5,1.92,64,0,4.12,AR,1717419744
377,sisimiut,66.9395,-53.6735,2.03,64,0,3.66,GL,1717419872
378,mehtar lam,34.6714,70.2094,39.24,6,0,7.25,AF,1717419821
379,bryne,58.7354,5.6477,16.08,74,75,6.17,NO,1717419874
380,estancias de florida,18.3666,-66.5696,29.36,79,63,2.27,PR,1717419875
381,happy valley-goose bay,53.3168,-60.3315,15.17,94,75,2.06,CA,1717419609
382,hobyo,5.3505,48.5268,29.19,71,16,12.0,SO,1717419876
383,detroit lakes,46.8172,-95.8453,15.05,100,100,0.0,US,1717419876
384,pizarro,4.9533,-77.366,27.36,87,99,1.32,CO,1717419877
385,sitka,57.0531,-135.33,9.94,87,100,0.0,US,1717419878
386,kuta,-8.7233,115.1723,26.97,94,20,3.6,ID,1717419878
387,deder,9.3167,41.45,26.86,21,13,6.2,ET,1717419879
388,kabrai,25.4167,80.0167,43.94,11,0,3.49,IN,1717419880
389,price,39.5994,-110.8107,16.18,39,98,3.69,US,1717419660
390,acapulco de juarez,16.8634,-99.8901,25.21,69,85,1.57,MX,1717419733
391,dampit,-8.2116,112.7493,21.97,96,98,2.09,ID,1717419883
392,tabou,4.423,-7.3528,27.29,83,91,3.99,CI,1717419872
393,klyuchi,52.2667,79.1667,20.88,39,93,2.81,RU,1717419884
394,hamza,40.4264,71.4956,21.97,34,100,10.79,UZ,1717419884
395,recani,31.2846,-4.2688,37.04,11,66,6.08,MA,1717419885
396,kilindoni,-7.9139,39.6668,27.08,74,9,3.7,TZ,1717419886
397,canutama,-6.5339,-64.3831,29.2,65,43,1.44,BR,1717419886
398,phalodi,27.1333,72.3667,41.51,16,0,6.1,IN,1717419887
399,vilyuchinsk,52.9306,158.4028,12.15,71,37,0.52,RU,1717419887
400,tavda,58.0425,65.2726,13.16,95,98,3.58,RU,1717419888
401,mossel bay,-34.1831,22.146,15.96,68,92,3.68,ZA,1717419889
402,mahina,-17.5065,-149.489,24.87,83,75,1.54,PF,1717419891
403,kamloops,50.6665,-120.3192,12.55,73,100,4.63,CA,1717419716
404,le port,-20.9373,55.2919,24.98,63,9,2.48,RE,1717419892
405,vila franca do campo,37.7167,-25.4333,20.23,99,10,3.2,PT,1717419892
406,vanimo,-2.6741,141.3028,26.12,89,100,1.83,PG,1717419671
407,alzamay,55.5562,98.6644,15.67,54,92,2.28,RU,1717419894
408,keelung,25.1283,121.7419,25.05,66,97,3.54,TW,1717419711
409,batman,37.8874,41.1322,35.89,15,0,4.12,TR,1717419723
410,gisborne,-38.6533,178.0042,12.56,67,74,7.55,NZ,1717419895
411,saynshand,44.8824,110.1163,23.75,26,47,2.08,MN,1717419896
412,santa sylvina,-27.8326,-61.1375,14.47,52,83,5.62,AR,1717419897
413,madang,-5.2246,145.7966,25.48,91,29,0.33,PG,1717419897
414,perry,37.2506,-83.1999,21.1,90,22,1.6,US,1717419898
415,lycksele,64.5954,18.6735,18.02,55,40,3.6,SE,1717419898
416,al khums,32.6486,14.2619,24.72,70,7,5.58,LY,1717419899
417,chos malal,-37.3781,-70.2709,3.66,58,100,0.65,AR,1717419899
418,praia da vitoria,38.7333,-27.0667,20.98,88,40,2.45,PT,1717419881
419,mata-utu,-13.2816,-176.1745,28.32,67,100,8.74,WF,1717419900
420,palmer,42.1584,-72.3287,23.23,67,88,0.45,US,1717419603
421,ixtapa,20.7,-105.2,24.57,83,100,1.03,MX,1717419901
422,ashburton,-37.8626,145.0794,11.88,78,100,0.89,AU,1717419902
423,novyy urgal,51.0736,132.5642,8.93,52,61,0.88,RU,1717419903
424,winfield,37.2398,-96.9956,20.05,92,100,0.0,US,1717419819
425,inyonga,-6.7167,32.0667,31.02,29,87,2.03,TZ,1717419863
426,blackwater,-23.5833,148.8833,12.42,46,48,2.19,AU,1717419905
427,esmeraldas,-19.7625,-44.3139,22.63,59,96,1.64,BR,1717419780
428,ardakan,32.31,54.0175,35.26,12,0,7.72,IR,1717419877
429,leskovac,42.9981,21.9461,23.77,79,100,2.2,RS,1717419846
430,corn island,12.1694,-83.0418,27.9,82,100,3.85,NI,1717419908
431,khovd,48.0056,91.6419,19.2,21,27,5.82,MN,1717419909
432,aberdeen,57.1437,-2.0981,20.86,36,100,6.69,GB,1717419786
433,tsiombe,-25.3,45.4833,24.21,60,0,5.68,MG,1717419892
434,vernon,50.2581,-119.2691,13.12,90,100,2.68,CA,1717419911
435,moratalla,38.1893,-1.8918,25.24,32,0,6.21,ES,1717419912
436,gordonvale,-17.0936,145.7842,20.88,95,12,1.46,AU,1717419912
437,guaira,-20.3183,-48.3106,24.22,49,54,3.1,BR,1717419913
438,alofi,-19.0595,-169.9187,19.94,88,75,1.54,NU,1717419914
439,miles city,46.4083,-105.8406,16.54,63,100,3.6,US,1717419914
440,sola,-13.8833,167.55,23.37,73,75,0.0,VU,1717419915
441,makueni boma,-1.8041,37.6203,25.24,59,100,2.58,KE,1717419916
442,livingston,55.9029,-3.5226,18.53,54,20,6.69,GB,1717419779
443,nyagan,62.1406,65.3936,13.06,32,88,1.9,RU,1717419858
444,bakanas,44.8081,76.2772,23.74,20,100,6.04,KZ,1717419918
445,gobo,33.8833,135.15,17.4,76,1,4.61,JP,1717419918
446,tynda,55.1667,124.7167,11.56,57,0,1.84,RU,1717419919
447,nova sintra,14.8667,-24.7167,23.94,79,100,9.51,CV,1717419919
448,piton saint-leu,-21.2196,55.3151,23.04,53,0,7.72,RE,1717419920
449,pauini,-7.7136,-66.9764,27.79,66,100,1.24,BR,1717419920
450,bosaso,11.2842,49.1816,34.99,66,20,4.63,SO,1717419672
451,modimolle,-24.7,28.4,20.39,13,0,9.13,ZA,1717419869
452,aral,40.5156,81.2636,30.86,13,0,5.18,CN,1717419921
453,lisala,2.15,21.5167,36.48,34,98,0.55,CD,1717419860
454,howard springs,-12.497,131.047,23.95,86,95,0.94,AU,1717419922
455,santiago de cao,-7.9589,-79.2392,17.07,88,100,3.6,PE,1717419923
456,farkhar,36.5729,69.8578,25.27,24,0,2.69,AF,1717419923
457,nagqu,31.5,92.0,8.72,25,100,4.82,CN,1717419923
458,choyr,46.3611,108.3611,18.77,35,25,2.77,MN,1717419924
459,as sulayyil,20.4607,45.5779,44.14,6,0,4.03,SA,1717419730
460,san julian,21.0167,-102.1667,20.74,41,8,2.2,MX,1717419925
461,kiunga,-6.1219,141.2906,24.06,97,98,1.15,PG,1717419926
462,ishqoshim,36.7248,71.6133,17.02,36,6,4.11,TJ,1717419665
463,chernyshevskiy,63.0128,112.4714,12.59,64,100,2.15,RU,1717419926
464,chul'man,56.8479,124.9104,11.82,51,1,1.34,RU,1717419927
465,shohimardon,39.9839,71.8028,15.43,86,100,2.34,UZ,1717419927
466,kroya,-7.6331,109.2461,25.55,88,98,2.93,ID,1717419928
467,lazaro cardenas,17.9583,-102.2,24.32,81,0,1.3,MX,1717419928
468,tucuma,-0.1833,-50.05,27.83,83,8,4.07,BR,1717419681
469,nanao,37.05,136.9667,16.11,93,51,1.01,JP,1717419929
470,la grande,45.3246,-118.0877,13.88,92,100,3.96,US,1717419930
471,priargunsk,50.3691,119.1012,17.85,54,71,7.44,RU,1717419930
472,segovia,41.1667,-4.0,25.8,35,17,3.5,ES,1717419930
473,bamboo flat,11.7,92.7167,29.05,84,40,2.57,IN,1717419931
474,aldan,58.6031,125.3894,11.01,54,23,1.04,RU,1717419931
475,zhoushan,30.0108,122.2047,20.26,69,4,3.33,CN,1717419932
476,lobva,59.1854,60.5185,10.3,90,100,2.14,RU,1717419933
477,gramsh,40.8697,20.1844,29.61,41,84,3.08,AL,1717419933
478,medak,18.0333,78.2667,32.78,41,95,2.5,IN,1717419934
479,chipinge,-20.1883,32.6236,30.35,18,5,2.77,ZW,1717419731
480,al khafji,28.4391,48.4913,37.94,26,0,8.52,SA,1717419934
481,peniche,39.3558,-9.3811,26.16,74,0,3.98,PT,1717419935
482,mau,25.95,83.55,41.41,15,8,2.15,IN,1717419936
483,crane,31.3974,-102.3501,24.33,82,95,6.85,US,1717419936
484,barra de santo antonio,-9.4047,-35.5072,29.6,82,1,5.52,BR,1717419926
485,bairnsdale,-37.8333,147.6167,11.14,82,97,0.45,AU,1717419937
486,blaubeuren,48.4122,9.7843,17.94,85,100,3.67,DE,1717419938
487,new norfolk,-42.7826,147.0587,12.62,99,89,0.4,AU,1717419939
488,uray,60.1247,64.7758,8.26,97,94,3.58,RU,1717419940
489,awjilah,29.1081,21.2869,42.71,8,100,1.77,LY,1717419791
490,kodinsk,58.6881,99.1844,17.47,54,100,1.53,RU,1717419941
491,maravatio de ocampo,19.9,-100.45,18.28,63,11,1.52,MX,1717419942
492,yanchep,-31.55,115.6833,17.19,70,100,2.85,AU,1717419942
493,rosario oeste,-14.8361,-56.4275,26.99,47,76,2.41,BR,1717419943
494,kuusamo,65.9667,29.1833,22.02,37,0,2.06,FI,1717419944
495,canto do buriti,-8.11,-42.9444,30.08,44,17,5.51,BR,1717419944
496,al jawf,29.5,38.75,42.63,6,0,3.81,SA,1717419945
497,kharan,28.5833,65.4167,41.24,3,0,3.18,PK,1717419945
498,moose jaw,50.4001,-105.5344,10.15,81,75,1.03,CA,1717419677
499,anloga,5.7947,0.8973,28.94,72,67,3.46,GH,1717419946
500,atar,20.5169,-13.0499,36.03,20,0,2.06,MR,1717419733
501,pemalang,-6.9,109.3667,26.39,83,75,2.43,ID,1717419912
502,abashiri,44.0213,144.2697,8.93,88,100,3.98,JP,1717419948
503,bagaha,27.1,84.0833,38.55,23,83,2.81,IN,1717419948
504,al wajh,26.2455,36.4525,30.97,66,0,7.72,SA,1717419684
505,kamina,-8.7386,24.9906,31.54,27,31,2.65,CD,1717419949
506,malakal,9.5334,31.6605,40.12,21,38,1.88,SS,1717419950
507,qarazhal,48.0078,70.7903,21.49,25,1,4.22,KZ,1717419950
508,bathsheba,13.2167,-59.5167,29.34,84,40,8.23,BB,1717419669
509,berezovyy,51.6667,135.7,7.22,80,14,1.6,RU,1717419951
510,pyt-yakh,60.7499,72.8582,9.81,34,7,4.29,RU,1717419952
511,barcelos,41.5388,-8.6151,29.4,39,0,2.96,PT,1717419952
512,arroio grande,-32.2375,-53.0869,9.69,84,0,3.93,BR,1717419693
513,horta,38.5333,-28.6333,20.01,87,20,3.09,PT,1717419953
514,ozalp,38.6548,43.993,22.75,32,5,4.05,TR,1717419954
515,severo-yeniseyskiy,60.3725,93.0408,5.32,66,98,1.79,RU,1717419954
516,santa luzia,-19.7697,-43.8514,22.65,69,0,4.12,BR,1717419955
517,thinadhoo,0.5333,72.9333,28.82,72,96,3.91,MV,1717419955
518,missoula,47.0166,-113.8009,7.69,88,100,1.48,US,1717419956
519,alcudia,39.8532,3.1214,26.88,59,23,3.54,ES,1717419956
520,chirilagua,13.2203,-88.1386,24.68,92,100,0.77,SV,1717419957
521,oyama,36.3,139.8,18.66,88,99,3.46,JP,1717419957
522,nabire,-3.3667,135.4833,24.96,91,100,1.11,ID,1717419957
523,ilebo,-4.3167,20.5833,34.97,38,93,1.97,CD,1717419731
524,christchurch,-43.5333,172.6333,7.75,86,75,2.57,NZ,1717419958
525,cambria,35.5641,-121.0808,15.55,85,100,1.83,US,1717419959
526,sumbawanga,-7.9667,31.6167,27.89,34,40,2.57,TZ,1717419959
527,trevelin,-43.0858,-71.4639,-0.29,80,100,1.42,AR,1717419960
528,naranjito,-2.2167,-79.4833,24.82,89,97,0.8,EC,1717419960
529,santa rosa de osos,6.6474,-75.4603,14.26,91,100,0.94,CO,1717419961
530,ploneour-lanvern,47.9,-4.2833,22.18,56,20,5.14,FR,1717419961
531,ushtobe,45.2514,77.9838,20.15,30,23,6.97,KZ,1717419961
532,mikun',62.3547,50.0771,24.37,42,6,1.56,RU,1717419962
533,ulladulla,-35.35,150.4667,7.65,74,27,3.37,AU,1717419962
534,kachia,9.8667,7.95,31.63,53,9,1.48,NG,1717419768
535,fale old settlement,-9.3852,-171.2468,28.67,76,35,6.92,TK,1717419963
536,akwanga,8.9167,8.3833,33.17,45,4,1.85,NG,1717419964
537,verkhnevilyuysk,63.4453,120.3167,14.91,87,8,2.08,RU,1717419964
538,bestobe,52.4994,73.0975,22.01,45,100,8.53,KZ,1717419965
539,udachny,66.4167,112.4,16.36,30,100,2.95,RU,1717419965
540,shalqar,47.8333,59.6,29.55,24,93,1.82,KZ,1717419966
541,nikolo-berezovka,56.1242,54.1557,25.42,53,100,1.62,RU,1717419966
542,dodge city,37.7528,-100.0171,17.92,79,0,2.57,US,1717419967
543,muroto-misakicho,33.2833,134.15,20.23,68,0,2.85,JP,1717419967
544,askino,56.0901,56.5783,22.74,69,36,4.49,RU,1717419968
545,inirida,3.8653,-67.9239,25.26,86,99,0.69,CO,1717419969
546,choibalsan,48.0667,114.5,20.84,35,100,3.19,MN,1717419969
547,maiduguri,11.8464,13.1603,41.0,19,38,1.38,NG,1717419970
548,arawa,-6.2132,155.5367,25.38,91,61,0.96,PG,1717419970
549,sao raimundo das mangabeiras,-7.0219,-45.4811,30.37,49,39,5.65,BR,1717419696
550,essaouira,31.5125,-9.77,22.72,60,100,2.57,MA,1717419971
551,minas de barroteran,27.6333,-101.2833,25.93,81,42,1.69,MX,1717419972
